City ID,City Name,Cloudiness,Country,Date,Humidity,Latitude,Longitude,Max Temperature,Wind Speed
0,San Patricio,40,MX,1580090341,74,19.22,-104.7,80.6,9.17
1,Weligama,96,LK,1580090341,74,5.97,80.42,77.61,4.61
2,Tasiilaq,100,GL,1580090341,50,65.61,-37.64,28.4,2.24
3,Bredasdorp,67,ZA,1580089914,76,-34.53,20.04,55.4,1.12
4,Chokurdakh,98,RU,1580090006,96,70.63,147.92,-26.28,4.59
5,Cape Town,40,ZA,1580089795,87,-33.93,18.42,61.0,5.82
6,Bengkulu,99,ID,1580089581,62,-3.8,102.27,85.35,2.86
7,Dikson,99,RU,1580089841,96,73.51,80.55,-5.22,3.65
8,Tabou,37,CI,1580090342,93,4.42,-7.35,77.22,2.39
9,Constitucion,11,CL,1580089775,71,-35.33,-72.42,62.73,7.27
10,Tura,0,IN,1580090048,55,25.52,90.22,64.17,3.44
11,Carupano,50,VE,1580090044,89,10.67,-63.26,67.86,3.22
12,Atuona,67,PF,1580089769,70,-9.8,-139.03,81.25,8.68
13,San Ignacio,40,BZ,1580090343,83,17.16,-89.07,75.2,3.02
14,Yulara,0,AU,1580090103,12,-25.24,130.99,95.0,16.11
15,Carnarvon,0,AU,1580090012,83,-24.87,113.63,80.6,13.87
16,Yellowknife,90,CA,1580089824,84,62.46,-114.35,1.4,5.82
17,Saldanha,12,ZA,1580090046,82,-33.01,17.94,55.4,5.82
18,Albany,90,US,1580090343,86,42.6,-73.97,39.2,10.29
19,Beloha,2,MG,1580090051,67,-25.17,45.05,73.08,7.81
20,Hithadhoo,100,MV,1580089996,82,-0.6,73.08,81.75,13.02
21,Rikitea,14,PF,1580090000,79,-23.12,-134.97,79.34,11.39
22,Weiser,20,US,1580090344,87,44.25,-116.97,42.8,3.24
23,Port Lincoln,12,AU,1580090108,56,-34.73,135.87,70.61,11.86
24,Torbay,90,CA,1580090060,58,47.67,-52.73,28.0,5.82
25,Aklavik,90,CA,1580090344,68,68.22,-135.01,-18.4,6.93
26,Pangnirtung,100,CA,1580090344,99,66.15,-65.71,-38.47,1.97
27,New Norfolk,75,AU,1580090246,42,-42.78,147.06,66.99,12.75
28,Kihei,20,US,1580090345,48,20.79,-156.47,84.2,12.75
29,Rabo de Peixe,40,PT,1580090345,82,37.8,-25.58,62.6,13.87
30,Shingu,75,JP,1580090345,81,33.73,135.98,50.0,4.7
31,Agua Verde,5,MX,1580090345,68,22.9,-106.05,73.0,8.05
32,Mergen,98,CN,1580090345,95,49.18,125.22,5.34,6.17
33,Mount Gambier,100,AU,1580089833,46,-37.83,140.77,69.8,11.41
34,Kapaa,1,US,1580090105,74,22.08,-159.32,80.6,10.29
35,Jamestown,90,US,1580089785,92,42.1,-79.24,33.8,12.75
36,Pandamatenga,34,BW,1580090345,78,-18.53,25.63,67.89,2.86
37,Ponta do Sol,20,PT,1580089878,72,32.67,-17.1,59.0,6.93
38,Mareeba,75,AU,1580090346,74,-17.0,145.43,90.0,8.05
39,Qaanaaq,0,GL,1580089806,53,77.48,-69.36,-10.32,4.09
40,Faya,0,SA,1580090094,44,18.39,42.45,42.8,4.0
41,Dovolnoye,100,RU,1580090346,90,54.5,79.67,18.09,25.03
42,Faanui,45,PF,1580090346,71,-16.48,-151.75,83.64,10.02
43,Balarampur,0,IN,1580090346,87,23.12,86.22,48.2,3.27
44,Bilma,60,NE,1580090346,13,18.69,12.92,60.62,7.85
45,Departamento de Maldonado,33,UY,1580090347,94,-34.67,-54.92,69.8,5.82
46,Vaini,40,TO,1580090000,79,-21.2,-175.2,84.2,6.93
47,San Cristobal,40,VE,1580090023,78,7.77,-72.22,77.0,2.24
48,Zeya,100,RU,1580090347,92,53.75,127.27,-8.79,3.67
49,Kodiak,40,US,1580090166,57,57.79,-152.41,17.6,4.7
50,Port Elizabeth,17,ZA,1580090193,75,-33.92,25.57,60.94,8.68
51,Nouadhibou,0,MR,1580090146,67,20.93,-17.03,62.6,17.22
52,South River,1,US,1580090347,60,40.45,-74.39,42.8,8.55
53,Ushuaia,40,AR,1580090164,70,-54.8,-68.3,48.2,5.82
54,Vila Franca do Campo,40,PT,1580090063,82,37.72,-25.43,62.6,13.87
55,Makakilo City,20,US,1580090348,61,21.35,-158.09,84.2,10.29
56,Boyolangu,0,ID,1580090348,65,-8.12,111.89,86.34,2.42
57,Kargasok,100,RU,1580089991,93,59.06,80.86,13.46,16.24
58,Dinar,100,TR,1580090348,79,38.06,30.17,30.2,2.66
59,Bereda,20,ES,1580090348,93,43.27,-7.54,54.0,10.29
60,Somerset East,33,ZA,1580090348,72,-32.72,25.59,45.07,3.47
61,Nome,1,US,1580089847,58,64.5,-165.41,-5.8,9.17
62,Kastamonu,24,TR,1580090329,75,41.5,33.67,27.12,1.92
63,Busselton,0,AU,1580090009,17,-33.65,115.33,93.99,5.37
64,Alwar,69,IN,1580090349,58,27.57,76.6,58.73,2.91
65,Sioux Lookout,90,CA,1580090016,85,50.1,-91.92,15.8,4.7
66,Calama,40,CL,1580090349,51,-22.47,-68.93,62.6,19.46
67,George Town,20,MY,1580090031,74,5.41,100.34,82.4,3.36
68,Qaqortoq,45,GL,1580090349,66,60.72,-46.03,12.2,3.36
69,Avarua,100,CK,1580089781,94,-21.21,-159.78,77.0,8.05
70,Yangi Marg`ilon,40,UZ,1580090290,80,40.43,71.72,32.0,6.93
71,Mahebourg,40,MU,1580090006,78,-20.41,57.7,77.0,8.05
72,Puerto Ayora,100,EC,1580090241,39,-0.74,-90.35,75.99,1.99
73,Tessalit,100,ML,1580090350,11,20.2,1.01,65.75,4.65
74,Estevan,90,CA,1580090350,100,49.13,-102.98,24.8,5.82
75,Mar del Plata,0,AR,1580090315,51,-38.0,-57.56,63.0,23.04
76,Okha,0,RU,1580090351,83,53.57,142.95,-3.21,19.91
77,Salinopolis,100,BR,1580090351,80,-0.61,-47.36,81.95,18.21
78,Hermanus,77,ZA,1580089767,60,-34.42,19.23,63.5,7.16
79,Hobart,75,AU,1580089695,45,-42.88,147.33,66.99,12.75
80,Saint George,90,US,1580090104,51,37.1,-113.58,57.2,2.68
81,Butaritari,100,KI,1580089779,81,3.07,172.79,81.86,12.86
82,Byron Bay,87,AU,1580090131,62,-28.65,153.62,87.01,10.29
83,Stettler,100,CA,1580090351,94,52.32,-112.72,30.31,10.16
84,Kahului,20,US,1580089804,48,20.89,-156.47,84.2,12.75
85,Valparaiso,0,CL,1580089726,93,-33.04,-71.63,62.6,3.36
86,Kavieng,7,PG,1580090001,72,-2.57,150.8,85.12,10.85
87,Invermere,100,CA,1580090352,96,50.52,-116.04,24.48,0.56
88,Chui,39,UY,1580090048,92,-33.7,-53.46,71.33,8.14
89,La Sarre,90,CA,1580090352,95,48.8,-79.2,25.48,8.23
90,Pevek,100,RU,1580089902,94,69.7,170.31,-5.13,1.63
91,Saskylakh,99,RU,1580089905,97,71.92,114.08,-19.07,6.22
92,Cabo San Lucas,20,MX,1580089929,77,22.89,-109.91,70.0,5.82
93,Ayan,98,RU,1580090352,65,56.45,138.17,7.02,4.14
94,Asilah,0,MA,1580090352,93,35.47,-6.03,46.4,4.7
95,Tuy Hoa,100,VN,1580090011,82,13.08,109.3,74.43,14.16
96,Punta Arenas,90,CL,1580090162,66,-53.15,-70.92,51.8,13.87
97,Nemuro,75,JP,1580090353,79,43.32,145.57,23.0,5.82
98,Forrest City,83,US,1580090353,100,35.01,-90.79,48.2,3.36
99,Hilo,90,US,1580090324,61,19.73,-155.09,80.6,10.29
100,Sao Miguel do Araguaia,100,BR,1580090353,98,-13.28,-50.16,73.51,4.47
101,Lebu,3,CL,1580090294,60,-37.62,-73.65,57.61,7.78
102,Samarai,78,PG,1580090353,55,-10.62,150.67,90.27,4.72
103,Gorlev,89,DK,1580090353,100,55.54,11.23,37.99,8.05
104,Khanbari,62,NP,1580090354,81,27.37,87.2,34.99,2.3
105,Pontianak,40,ID,1580090255,88,-0.03,109.33,78.8,4.7
106,Provideniya,0,RU,1580089822,76,64.38,-173.3,-4.0,4.47
107,West Bay,20,KY,1580090354,78,19.37,-81.42,75.2,3.36
108,Dingle,8,PH,1580089881,70,11.0,122.67,84.18,6.38
109,East London,11,ZA,1580089990,69,-33.02,27.91,64.13,20.07
110,Khatanga,93,RU,1580089788,98,71.97,102.5,-20.96,1.25
111,Hofn,87,IS,1580090230,64,64.25,-15.21,39.74,23.09
112,Airai,50,TL,1580089761,60,-8.93,125.41,82.74,5.68
113,Assiut,0,EG,1580090355,81,27.18,31.18,44.6,4.7
114,Haines Junction,100,CA,1580089990,97,60.75,-137.51,1.58,1.92
115,Chernyshevskiy,97,RU,1580090355,94,63.01,112.47,0.72,8.43
116,Beringovskiy,100,RU,1580090355,91,63.05,179.32,14.68,0.51
117,Pitimbu,91,BR,1580090355,88,-7.47,-34.81,80.6,6.93
118,Gaoua,78,BF,1580090355,10,10.3,-3.25,67.62,4.47
119,Coquimbo,20,CL,1580090050,88,-29.95,-71.34,75.99,6.93
120,Khandyga,28,RU,1580090356,85,62.67,135.6,-33.65,1.88
121,Oktyabrskoye,28,RU,1580090336,69,43.06,44.74,26.56,2.71
122,Souillac,40,MU,1580090356,78,-20.52,57.52,77.0,8.05
123,Longyearbyen,21,SJ,1580090122,77,78.22,15.64,3.2,2.24
124,Orizona,100,BR,1580090356,93,-17.03,-48.3,67.64,3.98
125,Iberia,90,US,1580090356,87,29.95,-91.75,57.2,5.82
126,Halifax,90,CA,1580089933,100,44.65,-63.57,41.0,10.29
127,Upernavik,86,GL,1580090216,94,72.79,-56.15,-16.42,4.63
128,Saint-Philippe,90,RE,1580090140,73,-21.36,55.77,75.2,9.17
129,Udachny,90,RU,1580089803,74,66.42,112.4,-25.6,2.24
130,Barrow,1,US,1580089853,74,71.29,-156.79,-23.8,10.29
131,Mecca,0,SA,1580090233,26,21.43,39.83,59.25,5.84
132,Eureka,75,US,1580090199,71,40.8,-124.16,55.0,6.93
133,Amahai,72,ID,1580090357,73,-3.33,128.92,83.53,5.99
134,Iqaluit,40,CA,1580090024,61,63.75,-68.51,-23.01,2.24
135,Saint-Augustin,100,CA,1580090024,96,51.23,-58.65,25.7,6.49
136,Ilam,47,NP,1580090358,80,26.92,87.92,43.88,2.66
137,Pilar,40,BR,1580090358,88,-9.6,-35.96,78.8,1.12
138,Tiksi,0,RU,1580090046,63,71.69,128.87,-31.18,2.64
139,Henties Bay,47,,1580090045,90,-22.12,14.28,61.0,3.91
140,Husavik,29,IS,1580090358,68,66.04,-17.34,30.2,26.4
141,Panama,20,PA,1580090265,78,8.99,-79.52,78.8,8.05
142,Lorengau,97,PG,1580089898,71,-2.02,147.27,85.3,8.72
143,Grand Gaube,40,MU,1580089996,78,-20.01,57.66,77.0,8.05
144,Castro,0,BR,1580089901,94,-24.79,-50.01,63.45,3.09
145,Geraldton,0,AU,1580089776,48,-28.77,114.6,86.0,8.05
146,Flinders,75,AU,1580090359,65,-34.58,150.86,88.0,5.82
147,Mataura,76,NZ,1580089785,71,-46.19,168.86,64.99,11.01
148,Pasan,0,IN,1580090359,43,22.85,82.2,60.12,1.21
149,Salta,40,AR,1580090122,88,-24.79,-65.41,78.8,14.99
150,Esperance,0,AU,1580090210,51,-33.87,121.9,80.6,8.05
151,Deputatsky,100,RU,1580090359,80,69.3,139.9,-27.96,2.77
152,Huarmey,100,PE,1580090359,77,-10.07,-78.15,71.55,2.51
153,Hosingen,100,LU,1580090359,93,50.02,6.09,44.01,10.29
154,Constantine,75,DZ,1580090172,93,36.37,6.61,42.8,2.37
155,Lata,72,PT,1580089921,87,40.16,-8.33,54.0,5.82
156,Arraial do Cabo,1,BR,1580090235,79,-22.97,-42.03,75.49,11.5
157,Bluff,49,NZ,1580090360,71,-46.6,168.33,64.0,11.01
158,Eydhafushi,100,MV,1580090360,75,5.1,73.07,81.14,8.48
159,Tuatapere,91,NZ,1580090360,71,-46.13,167.68,64.0,11.01
160,Sitka,90,US,1580089819,70,57.05,-135.33,44.6,13.87
161,Sarakhs,0,IR,1580090188,79,36.54,61.16,32.0,2.24
162,Pontes e Lacerda,99,BR,1580090360,81,-15.23,-59.34,75.16,2.64
163,Mackay,75,AU,1580089851,78,-21.15,149.2,82.99,13.87
164,Ballarat,100,AU,1580090360,55,-37.57,143.85,73.0,4.0
165,Hurup,100,DK,1580090361,100,56.75,8.42,41.0,11.41
166,Tuktoyaktuk,90,CA,1580089792,75,69.45,-133.04,-18.4,9.17
167,Touros,40,BR,1580090095,88,-5.2,-35.46,80.6,3.36
168,Margate,20,GB,1580090099,93,51.38,1.39,48.2,11.41
169,Rampur Hat,0,IN,1580090361,55,24.17,87.78,63.88,8.37
170,Inirida,100,CO,1580090361,74,3.87,-67.92,78.12,1.12
171,Pulivendla,93,IN,1580090361,46,14.42,78.23,76.1,1.54
172,Bintulu,75,MY,1580090185,83,3.17,113.03,84.2,3.36
173,Bubaque,100,GW,1580090024,43,11.28,-15.83,79.81,12.44
174,Giza,99,EG,1580090361,75,30.01,31.21,46.4,10.29
175,Fengzhen,100,CN,1580090362,61,40.44,113.15,22.57,2.1
176,Kismayo,100,SO,1580090362,90,-0.36,42.55,80.08,8.21
177,Jacmel,0,HT,1580090362,78,18.23,-72.53,77.0,4.7
178,Kokorevka,39,RU,1580090362,95,52.59,34.28,28.9,7.81
179,Marsh Harbour,1,BS,1580090362,50,26.54,-77.06,69.98,5.06
180,Thyboron,100,DK,1580090362,97,56.7,8.21,41.0,5.01
181,Arrifes,40,PT,1580090362,82,37.77,-25.7,62.6,13.87
182,Sunrise Manor,40,US,1580090363,36,36.21,-115.07,62.6,6.93
183,Meulaboh,91,ID,1580089953,82,4.14,96.13,81.61,5.12
184,Kaseda,90,JP,1580089906,87,31.42,130.32,57.2,13.87
185,Nangomba,100,TZ,1580090363,93,-10.9,38.5,72.27,3.6
186,Port Alfred,18,ZA,1580089813,78,-33.59,26.89,62.01,3.0
187,Bendigo,100,AU,1580090363,49,-36.77,144.28,91.99,1.99
188,Taoudenni,100,ML,1580090160,24,22.68,-3.98,69.62,5.46
189,Russell,90,US,1580089997,57,32.35,-85.2,50.0,3.18
190,Thompson,5,CA,1580090136,83,55.74,-97.86,-4.0,0.98
191,Cherskiy,86,RU,1580089821,87,68.75,161.3,-23.78,1.48
192,Bathsheba,75,BB,1580090364,78,13.22,-59.52,78.8,9.17
193,Esso,82,RU,1580090364,92,55.93,158.7,14.99,2.1
194,Odienne,100,CI,1580090364,13,9.51,-7.57,67.8,0.96
195,Rosarito,90,MX,1580090293,76,32.33,-117.03,60.8,5.82
196,Eilat,34,IL,1580090364,49,29.56,34.95,46.4,6.93
197,Rocha,6,UY,1580090365,97,-34.48,-54.33,64.92,2.19
198,Linqiong,40,CN,1580090365,87,30.42,103.46,42.8,4.47
199,Presque Isle,90,US,1580090365,96,46.68,-68.02,33.8,4.7
200,Mezen,78,RU,1580090365,94,65.85,44.24,-5.82,6.91
201,Nikolskoye,40,RU,1580090189,68,59.7,30.79,28.4,8.95
202,Nacala,93,MZ,1580090365,96,-14.54,40.67,72.9,3.94
203,Ancud,75,CL,1580090182,82,-41.87,-73.82,55.4,4.7
204,Narasannapeta,0,IN,1580090365,56,18.42,84.05,74.07,4.81
205,Port Blair,0,IN,1580090365,63,11.67,92.75,77.5,12.68
206,Camalu,6,MX,1580090366,51,30.85,-116.07,37.99,1.01
207,Alta Floresta,100,BR,1580090366,95,-9.88,-56.09,73.53,2.24
208,Kalmunai,100,LK,1580090366,65,7.42,81.82,79.77,11.65
209,Hasaki,75,JP,1580089849,70,35.73,140.83,43.0,3.36
210,Sarangani,57,PH,1580090366,73,5.4,125.46,83.14,6.33
211,Hong Kong,40,HK,1580089693,66,22.29,114.16,55.0,12.75
212,Ribeirao,40,BR,1580090366,74,-8.51,-35.38,84.2,4.7
213,Katsuura,75,JP,1580090366,67,35.13,140.3,46.0,6.93
214,Nador,0,MA,1580090262,76,35.17,-2.93,53.6,0.96
215,Dickson,90,US,1580090367,81,36.08,-87.39,46.99,5.82
216,Arrondissement de Nevers,96,FR,1580090367,87,46.92,3.33,44.6,9.17
217,Kalat,52,PK,1580090367,97,29.02,66.59,32.79,4.68
218,Narsaq,77,GL,1580090013,66,60.92,-46.05,12.2,3.36
219,Preobrazheniye,5,RU,1580090367,38,42.9,133.91,33.37,1.59
220,Kaitangata,81,NZ,1580089902,66,-46.28,169.85,68.0,7.23
221,Yar-Sale,98,RU,1580090367,99,66.83,70.83,-10.37,2.57
222,Lewistown,0,US,1580090367,80,40.6,-77.57,37.0,5.82
223,Lavrentiya,0,RU,1580090368,84,65.58,-171.0,-15.61,1.03
224,Warri,0,NG,1580090368,86,5.52,5.75,71.11,2.01
225,Preston,75,GB,1580090221,93,53.77,-2.72,43.0,13.87
226,Hay River,75,CA,1580090368,84,60.82,-115.8,-0.4,5.17
227,Manzini,100,SZ,1580090368,93,-26.25,31.5,69.8,13.87
228,Paramirim,100,BR,1580090368,87,-13.44,-42.24,65.84,1.79
229,Coyhaique,100,CL,1580090369,44,-45.58,-72.07,60.8,11.41
230,Bambous Virieux,40,MU,1580090287,78,-20.34,57.76,77.0,8.05
231,Sao Filipe,0,CV,1580090173,65,14.9,-24.5,73.15,10.83
232,Norman Wells,75,CA,1580089863,69,65.28,-126.83,-13.0,9.17
233,Ahipara,10,NZ,1580089800,82,-35.17,173.17,69.78,9.15
234,Guhagar,80,IN,1580090033,58,17.48,73.19,77.32,3.65
235,Dongsheng,100,CN,1580090369,88,39.82,109.98,24.53,2.75
236,Severo-Kuril'sk,89,RU,1580089904,88,50.68,156.12,22.35,11.21
237,Arrondissement de Bastia,85,FR,1580090369,87,42.67,9.33,46.4,6.93
238,La Macarena,91,CO,1580090370,62,2.18,-73.78,76.5,0.51
239,Barra de Tecoanapa,0,MX,1580090370,85,16.52,-98.75,74.3,1.61
240,Outjo,0,,1580090370,55,-20.12,16.15,69.8,3.36
241,High Level,90,CA,1580089834,100,58.52,-117.14,15.8,5.82
242,Port Shepstone,82,ZA,1580090370,51,-30.74,30.45,62.94,13.73
243,Biltine,0,TD,1580090370,16,14.53,20.92,59.76,14.36
244,Camargo,0,MX,1580090370,31,27.67,-105.17,62.67,7.96
245,Lompoc,1,US,1580090063,87,34.64,-120.46,60.01,11.41
246,Lima,40,PE,1580090111,83,-12.04,-77.03,75.2,21.92
247,Luderitz,0,,1580090000,59,-26.65,15.16,64.4,17.22
248,Port Hueneme,20,US,1580090371,82,34.15,-119.2,60.8,4.7
249,Chunoyar,8,RU,1580090371,94,57.45,97.32,3.7,3.76
250,Afsin,22,TR,1580090371,55,38.25,36.91,18.12,2.01
251,Arawa,94,PG,1580090371,70,-6.21,155.54,84.24,3.89
252,Warrnambool,100,AU,1580090335,75,-38.38,142.48,60.35,10.51
253,Namatanai,26,PG,1580090018,72,-3.67,152.43,85.82,12.37
254,Acapulco de Juarez,20,MX,1580090326,74,16.86,-99.89,80.6,10.29
255,Bontang,41,ID,1580090371,76,0.13,117.5,83.68,8.05
256,Vestmannaeyjar,74,IS,1580090372,74,63.44,-20.27,38.35,26.51
257,La Ronge,90,CA,1580090263,92,55.1,-105.28,21.2,6.93
258,Antofagasta,75,CL,1580089775,83,-23.65,-70.4,72.0,9.17
259,Moose Factory,90,CA,1580089774,92,51.26,-80.61,21.2,14.99
260,Cap Malheureux,40,MU,1580090372,78,-19.98,57.61,77.0,8.05
261,Split,92,HR,1580090363,71,43.51,16.44,50.0,10.29
262,Almaznyy,0,RU,1580090327,86,48.04,40.05,26.6,6.71
263,Batagay-Alyta,0,RU,1580090373,43,67.8,130.41,-30.5,4.76
264,Carballo,20,ES,1580090010,93,43.21,-8.69,55.0,10.29
265,Oruro,68,BO,1580090373,59,-17.98,-67.15,51.58,7.99
266,Nicoya,8,CR,1580090373,65,10.15,-85.45,78.8,4.7
267,Sur,4,OM,1580089923,53,22.57,59.53,61.5,11.83
268,Moree,75,AU,1580090373,45,-29.47,149.85,87.8,11.41
269,Tacuarembo,99,UY,1580090374,39,-31.73,-55.98,74.1,6.73
270,Sigli,72,ID,1580090374,74,5.38,95.96,80.02,2.64
271,Vao,100,NC,1580090374,81,-22.67,167.48,78.66,14.76
272,Riyadh,0,SA,1580090361,65,24.69,46.72,41.0,5.82
273,Feijo,83,BR,1580090374,87,-8.16,-70.35,75.76,2.15
274,Honningsvag,100,NO,1580090374,63,70.98,25.97,22.48,9.73
275,Shubarkuduk,97,KZ,1580090374,95,49.14,56.49,18.59,12.21
276,Arlit,100,NE,1580090374,9,18.74,7.39,65.37,6.46
277,Vestmanna,100,FO,1580090374,68,62.16,-7.17,39.2,23.04
278,Necochea,0,AR,1580090375,59,-38.55,-58.74,60.01,10.0
279,Bafq,0,IR,1580090375,57,31.61,55.41,36.77,3.22
280,Iquitos,96,PE,1580090100,94,-3.75,-73.25,78.8,1.07
281,Darnah,98,LY,1580090375,53,32.77,22.64,60.94,10.49
282,Todos Santos,20,MX,1580090375,77,23.45,-110.22,70.0,5.82
283,Bhongaon,0,IN,1580090375,63,27.25,79.18,58.51,1.39
284,Goderich,100,CA,1580090375,89,43.75,-81.72,34.0,1.99
285,Hambantota,20,LK,1580089965,100,6.12,81.12,69.8,3.36
286,Saquena,100,PE,1580090376,95,-4.67,-73.52,75.34,2.1
287,Dergachi,91,RU,1580090376,92,51.23,48.77,21.76,15.41
288,Maniitsoq,98,GL,1580089915,77,65.42,-52.9,12.15,3.56
289,Manta,75,EC,1580090376,78,-0.95,-80.73,80.6,4.7
290,Jiuquan,100,CN,1580090376,38,39.74,98.52,18.91,0.69
291,Bhisho,26,ZA,1580090376,75,-32.85,27.44,55.33,13.67
292,Pangani,79,TZ,1580090376,87,-5.43,38.97,78.06,5.68
293,Teguldet,100,RU,1580090377,86,57.31,88.17,8.4,9.08
294,Kiryat Gat,100,IL,1580090066,87,31.61,34.76,46.99,2.24
295,Tula,100,RU,1580090337,94,54.2,37.61,33.91,16.06
296,Eyl,0,SO,1580090377,77,7.98,49.82,78.37,23.47
297,Lagoa,100,PT,1580090148,86,39.05,-27.98,61.75,16.8
298,Leh,0,IN,1580090308,57,34.17,77.58,-13.56,5.08
299,Payson,90,US,1580090294,100,40.04,-111.73,39.99,9.17
300,Takapau,0,NZ,1580090378,52,-40.03,176.35,82.99,4.0
301,La Providencia,9,MX,1580090378,58,28.72,-111.58,71.01,1.01
302,Labuhan,46,ID,1580090291,67,-6.88,112.21,87.12,2.26
303,Guasdualito,20,VE,1580090378,74,7.24,-70.73,80.6,4.27
304,San Miguel de Tucuman,90,AR,1580090174,94,-26.82,-65.22,71.6,4.7
305,Njombe,100,TZ,1580090378,97,-9.33,34.77,59.32,4.59
306,Tshela,100,CD,1580090378,96,-4.98,12.93,73.45,1.72
307,Half Moon Bay,20,US,1580090378,87,37.46,-122.43,57.99,8.05
308,Urumqi,2,CN,1580090379,84,43.8,87.6,8.6,2.24
309,Mehamn,100,NO,1580090095,75,71.04,27.85,15.24,7.34
310,Krasnosel'kup,100,RU,1580090011,96,65.7,82.47,0.41,9.24
311,San Ramon,1,US,1580090197,82,37.78,-121.98,57.99,10.29
312,Urengoy,97,RU,1580090241,96,65.97,78.37,-1.97,7.61
313,Mbandaka,11,CD,1580090033,35,0.05,18.26,69.73,1.01
314,Bull Savanna,37,JM,1580090379,92,17.89,-77.59,64.65,1.3
315,Port Hardy,90,CA,1580090027,93,50.7,-127.42,42.8,8.05
316,Laas,5,IT,1580090379,86,46.62,10.7,32.0,3.36
317,Lakes Entrance,100,AU,1580090380,67,-37.88,147.98,80.01,5.99
318,Pedasi,80,PA,1580090380,75,7.53,-80.03,79.36,12.21
319,Bac Lieu,24,VN,1580090249,55,9.29,105.72,84.6,8.12
320,Rensvik,100,NO,1580090380,52,63.1,7.82,44.6,18.34
321,Jacareacanga,88,BR,1580090380,93,-6.22,-57.75,75.02,0.98
322,Pasighat,0,IN,1580090380,50,28.07,95.33,58.73,2.48
323,Bonthe,54,SL,1580090380,84,7.53,-12.51,75.27,2.24
324,Norsup,75,VU,1580090381,70,-16.07,167.38,86.0,6.93
325,Bilibino,3,RU,1580090381,93,68.05,166.44,-9.35,2.91
326,Padang,84,ID,1580089989,81,-0.95,100.35,78.48,2.01
327,Muros,90,ES,1580090032,100,42.78,-9.06,55.0,16.11
328,Guaxupe,9,BR,1580090180,70,-21.31,-46.71,59.29,1.95
329,Marshall,90,US,1580090381,75,34.38,-86.33,46.99,3.36
330,Verkhnyaya Toyma,86,RU,1580090381,96,62.23,45.0,1.17,5.91
331,Broome,90,US,1580090198,87,42.25,-75.83,36.0,11.41
332,Abu Samrah,0,SY,1580090381,86,35.3,37.18,42.73,8.19
333,Imeni Poliny Osipenko,34,RU,1580090382,90,52.42,136.49,-1.07,10.49
334,Atar,0,MR,1580090124,28,20.52,-13.05,65.19,8.66
335,Soller,1,ES,1580090382,87,39.77,2.72,53.01,5.82
336,Andenes,100,NO,1580090041,57,69.31,16.12,23.0,23.04
337,Sundsvall,100,SE,1580090382,97,62.39,17.31,33.01,6.93
338,Bulawayo,0,ZW,1580090382,63,-20.15,28.58,64.47,3.09
339,Peterhead,20,GB,1580090382,75,57.51,-1.8,33.01,6.93
340,Camacha,20,PT,1580090025,77,33.08,-16.33,60.8,2.24
341,Hobyo,57,SO,1580090094,70,5.35,48.53,78.71,21.9
342,Neryungri,99,RU,1580090383,96,56.67,124.65,5.32,3.0
343,Qasigiannguit,17,GL,1580090383,65,68.82,-51.19,3.2,1.12
344,Northam,76,GB,1580090383,91,51.03,-4.22,48.0,8.01
345,Hwange,2,ZW,1580090383,85,-18.37,26.5,67.55,2.26
346,Vilyuysk,100,RU,1580090383,96,63.76,121.62,-23.91,6.15
347,Olinda,40,BR,1580090383,74,-8.01,-34.86,84.2,4.7
348,Sabang,100,ID,1580090383,80,5.89,95.32,81.52,15.01
349,Reggio Calabria,40,IT,1580090383,82,38.11,15.66,57.99,2.24
350,Vostok,0,RU,1580090312,80,46.49,135.88,16.41,3.27
351,Dankov,90,RU,1580090384,94,53.25,39.16,33.8,15.66
352,Codrington,89,AU,1580090094,74,-38.27,141.97,60.98,12.66
353,Lazurne,0,UA,1580090384,99,46.08,32.53,30.0,7.07
354,Quatre Cocos,40,MU,1580090384,78,-20.21,57.76,77.0,8.05
355,Fortuna,75,US,1580089907,71,40.6,-124.16,55.0,6.93
356,Rypefjord,40,NO,1580090384,78,70.63,23.67,15.8,5.82
357,Guerrero Negro,20,MX,1580089796,86,27.98,-114.06,59.74,14.25
358,Cairns,75,AU,1580090384,74,-16.92,145.77,90.0,8.05
359,Johnson City,90,US,1580090216,69,36.31,-82.35,39.99,3.27
360,Howard Springs,40,AU,1580090385,70,-12.5,131.05,96.01,13.87
361,Najran,5,SA,1580090087,60,17.49,44.13,42.8,1.77
362,Matamoros,20,MX,1580090385,28,25.53,-103.25,73.4,3.36
363,Orocue,63,CO,1580090385,51,4.79,-71.34,83.03,5.32
364,Fowa,5,NG,1580090385,17,8.92,6.4,70.88,4.16
365,Ko Samui,20,TH,1580090385,74,9.54,99.94,82.4,4.7
366,Karratha,0,AU,1580090317,57,-20.74,116.85,91.0,8.46
367,At-Bashi,4,KG,1580090386,64,41.17,75.81,-3.26,7.29
368,Berlevag,100,NO,1580090064,65,70.86,29.09,22.14,12.68
369,Winthrop,1,US,1580090386,69,42.38,-70.98,39.2,4.7
370,Yining,83,CN,1580090386,80,29.04,114.56,40.96,3.24
371,Itaituba,98,BR,1580090386,84,-4.28,-55.98,76.3,2.04
372,Betioky,39,MG,1580090386,70,-23.72,44.38,76.03,4.12
373,Talcher,0,IN,1580090386,34,20.95,85.22,65.62,3.67
374,Mukdahan,40,TH,1580090386,82,16.58,104.5,66.2,2.24
375,Pilcaya,40,MX,1580090386,31,18.73,-99.68,75.2,6.93
376,Barranquilla,0,CO,1580090387,74,10.96,-74.8,82.4,12.75
377,Siauliai,90,LT,1580090168,92,55.93,23.32,33.8,10.29
378,Den Helder,90,NL,1580090387,93,52.96,4.76,46.99,23.04
379,Leningradskiy,100,RU,1580090101,93,69.38,178.42,-8.73,13.62
380,Nishihara,75,JP,1580090387,73,26.18,127.76,71.6,21.92
381,Taltal,7,CL,1580089877,81,-25.4,-70.48,67.32,1.32
382,Nanortalik,99,GL,1580089821,74,60.14,-45.24,22.75,19.62
383,Omboue,83,GA,1580090043,94,-1.57,9.26,76.77,0.56
384,Talara,87,PE,1580090317,92,-4.58,-81.27,74.39,10.11
385,Carutapera,100,BR,1580090387,80,-1.2,-46.02,81.99,13.2
386,Toccoa,90,US,1580090388,57,34.58,-83.33,50.0,3.36
387,Rawson,0,AR,1580090084,57,-43.3,-65.1,59.9,10.09
388,Avera,90,US,1580090050,53,33.19,-82.53,53.6,5.82
389,Dunedin,6,NZ,1580089788,66,-45.87,170.5,68.0,11.3
390,Maningrida,100,AU,1580090388,81,-12.07,134.27,85.32,20.2
391,Gornopravdinsk,100,RU,1580090388,95,60.05,69.9,17.06,6.4
392,Paamiut,100,GL,1580089946,67,61.99,-49.67,18.43,21.88
393,Ubari,13,LY,1580090388,16,26.59,12.78,57.51,7.7
394,Macapa,90,BR,1580090320,100,0.04,-51.07,77.0,6.93
395,Salalah,0,OM,1580089925,16,17.02,54.09,66.2,23.04
396,Tiarei,20,PF,1580090378,66,-17.53,-149.33,87.8,10.29
397,Mahibadhoo,97,MV,1580090258,76,3.78,72.97,80.65,8.19
398,Tema,0,GH,1580090121,78,5.67,-0.02,80.6,2.24
399,Hualmay,100,PE,1580090389,82,-11.1,-77.61,71.08,4.88
400,Tutoia,100,BR,1580090389,95,-2.76,-42.27,76.46,4.32
401,Wundanyi,94,KE,1580090389,95,-3.4,38.36,68.59,1.21
402,Waingapu,100,ID,1580090390,73,-9.66,120.26,83.91,1.9
403,Heraclea,3,TR,1580090390,46,37.51,34.05,32.0,1.92
404,Sittwe,0,MM,1580089938,53,20.15,92.9,64.62,11.81
405,Merke,100,KZ,1580090390,81,42.87,73.18,23.36,4.12
406,Luau,100,AO,1580090390,98,-10.71,22.22,65.28,2.77
407,Alyangula,100,AU,1580090051,70,-13.85,136.42,89.6,13.87
408,Sonoma,1,US,1580090390,87,38.55,-122.9,57.2,3.31
409,Villacarrillo,0,ES,1580090390,80,38.12,-3.08,43.0,2.19
410,Guayape,24,HN,1580090391,69,14.72,-86.83,62.6,4.0
411,Lebedinyy,100,RU,1580090391,90,58.52,125.52,11.98,9.19
412,Machico,20,PT,1580090391,72,32.7,-16.77,60.8,6.93
413,Tsabong,0,BW,1580090391,31,-26.02,22.4,64.49,9.04
414,Kudat,75,MY,1580090391,83,6.88,116.85,84.2,5.82
415,Pachino,16,IT,1580090391,93,36.72,15.09,53.01,3.36
416,Bria,9,CF,1580090391,29,6.54,21.99,60.55,4.63
417,Acandi,78,CO,1580090391,98,8.51,-77.28,70.02,2.71
418,Conversion,99,PH,1580090392,52,15.9,121.13,81.63,4.41
419,Pisco,56,PE,1580089842,88,-13.7,-76.22,71.6,21.92
420,Mikumi,100,TZ,1580090392,96,-7.4,36.98,69.08,3.56
421,Kloulklubed,75,PW,1580090392,74,7.04,134.26,84.2,10.29
422,Benicarlo,3,ES,1580090392,76,40.42,0.43,39.0,3.0
423,Matara,96,LK,1580090392,74,5.95,80.54,77.61,4.61
424,Aleppo Governorate,9,SY,1580090392,90,36.25,37.5,42.57,8.23
425,Magistralnyy,100,RU,1580090392,89,56.17,107.45,15.85,3.04
426,Saint-Pierre,90,RE,1580090347,73,-21.34,55.48,75.2,9.17
427,Yate,40,GB,1580090393,93,51.54,-2.42,46.4,11.41
428,Vung Tau,34,VN,1580090393,65,10.35,107.08,83.12,12.59
429,Penza,99,RU,1580090393,88,53.2,45.0,30.0,22.3
430,Dera Bugti,87,PK,1580090393,55,29.03,69.15,55.27,4.56
431,Gamba,93,GA,1580090093,84,-2.65,10.0,78.87,0.98
432,Sunndalsora,100,NO,1580090393,52,62.68,8.55,44.6,18.34
433,Finschhafen,63,PG,1580090134,69,-6.6,147.87,85.75,8.55
434,Prestea,20,GH,1580090157,87,5.43,-2.14,71.56,0.65
435,Agua Dulce,40,MX,1580090394,83,18.13,-94.13,77.0,11.41
436,Mwense,100,ZM,1580090394,99,-10.38,28.7,65.82,0.51
437,Moses Lake,1,US,1580090394,81,47.13,-119.28,46.0,3.36
438,Cosala,0,MX,1580090394,84,24.41,-106.69,66.0,2.15
439,Roebourne,0,AU,1580090394,9,-20.78,117.13,108.25,12.93
440,Matagami,90,CA,1580090062,92,49.75,-77.63,26.6,8.05
441,Rio Gallegos,40,AR,1580089910,43,-51.62,-69.22,55.4,11.41
442,Bonavista,100,CA,1580090394,80,48.65,-53.11,30.0,13.35
443,Mount Isa,90,AU,1580089903,78,-20.73,139.5,82.4,9.17
444,Port Hedland,0,AU,1580089904,56,-20.32,118.57,95.0,5.82
445,Kasongo-Lunda,100,CD,1580090395,97,-6.47,16.82,68.11,0.6
446,Koboko,91,UG,1580090395,35,3.41,30.96,68.27,4.56
447,Rawlins,90,US,1580090395,80,41.79,-107.24,35.6,4.7
448,Los Llanos de Aridane,40,ES,1580090297,67,28.66,-17.92,62.6,9.17
449,Bodden Town,20,KY,1580090395,78,19.28,-81.25,75.2,3.36
450,Gharghoda,0,IN,1580090395,34,22.17,83.35,65.32,1.1
451,Taksimo,98,RU,1580090395,94,56.34,114.88,-1.34,2.73
452,Harar,100,ET,1580090395,95,9.31,42.13,57.56,4.23
453,Simao,0,CN,1580090396,44,22.79,100.97,58.84,3.62
454,Ilulissat,17,GL,1580090275,65,69.22,-51.1,3.2,1.12
455,Klyuchi,100,RU,1580090266,84,52.27,79.17,22.35,25.21
456,Puerto Baquerizo Moreno,100,EC,1580090396,87,-0.9,-89.6,75.79,9.24
457,Bethel,90,US,1580089716,64,41.37,-73.41,43.0,4.7
458,Tautira,20,PF,1580090098,66,-17.73,-149.15,87.8,10.29
459,Tazovsky,93,RU,1580090396,97,67.47,78.7,-2.42,7.54
460,Nizhniy Kuranakh,96,RU,1580090396,91,58.84,125.49,13.8,8.08
461,Clyde River,1,CA,1580089876,74,70.47,-68.59,-22.0,5.82
462,Grindavik,40,IS,1580089866,74,63.84,-22.43,33.8,16.11
463,Zhigansk,0,RU,1580090095,61,66.77,123.37,-29.0,2.44
464,Semirom,0,IR,1580090397,29,31.42,51.57,14.97,1.88
465,Balkanabat,88,TM,1580090397,78,39.51,54.37,35.98,6.02
466,Salaga,0,GH,1580090397,11,8.55,-0.52,72.86,2.95
467,Asau,100,RO,1580090042,80,46.43,26.4,30.99,5.82
468,Platanos,75,GR,1580090397,93,37.67,21.62,57.2,11.41
469,Pacific Grove,20,US,1580090397,76,36.62,-121.92,60.01,6.93
470,Vardo,100,NO,1580089812,85,70.37,31.11,10.4,24.16
471,Thinadhoo,100,MV,1580090058,77,0.53,72.93,81.77,10.8
472,Ribeira Grande,100,PT,1580089938,89,38.52,-28.7,59.38,18.59
473,Chissamba,100,AO,1580090398,97,-12.17,17.33,63.66,1.97
474,Geneva,90,US,1580090367,92,41.89,-88.31,30.0,4.7
475,Ketchikan,90,US,1580090398,86,55.34,-131.65,42.8,23.04
476,Mercedes,20,AR,1580090398,26,-34.65,-59.43,80.01,8.99
477,Rumphi,100,MW,1580090398,99,-11.02,33.86,61.88,0.72
478,Lander,1,US,1580090398,74,42.83,-108.73,28.4,6.93
479,Marystown,100,CA,1580090398,87,47.17,-55.15,33.53,16.2
480,Ambovombe,6,MG,1580090399,76,-25.17,46.08,66.79,6.2
481,Kruisfontein,32,ZA,1580090399,87,-34.0,24.73,54.01,9.1
482,Chunskiy,3,RU,1580090399,91,56.08,99.63,11.05,3.11
483,Buraidah,0,SA,1580090338,86,26.33,43.98,37.4,3.94
484,Saint-Leu,90,RE,1580090399,73,-21.15,55.28,75.2,9.17
485,Cuenca,90,EC,1580090399,82,-2.88,-78.98,60.8,6.93
486,Zanjan,0,IR,1580090399,68,36.67,48.48,8.06,2.86
487,Wagar,0,SD,1580090399,88,16.15,36.2,51.67,7.52
488,Nabire,62,ID,1580089852,55,-3.37,135.48,90.23,6.04
489,Mahajanga,20,MG,1580090400,94,-15.72,46.32,78.8,4.7
490,Mashhad,0,IR,1580090132,86,36.3,59.61,30.2,4.7
491,Diego de Almagro,0,CL,1580090400,74,-26.37,-70.05,63.82,0.92
492,Zhelyabovka,0,UA,1580090400,89,45.4,34.76,37.02,1.23
493,Laranja da Terra,100,BR,1580090400,96,-19.9,-41.06,66.78,2.33
494,Hamilton,40,US,1580089830,89,39.18,-84.53,37.0,2.08
495,Polunochnoye,100,RU,1580090401,96,60.87,60.42,-5.04,6.44
496,Konstantinovka,0,RU,1580090401,87,49.62,127.98,10.22,7.61
497,Kovacica,75,RS,1580090401,100,45.11,20.62,46.4,8.05
498,Port-Cartier,90,CA,1580090401,92,50.03,-66.87,28.0,12.75
499,Klaksvik,94,FO,1580090340,63,62.23,-6.59,39.2,23.04
500,Pozo Colorado,0,PY,1580090401,36,-23.49,-58.8,79.25,2.64
501,Chapais,90,CA,1580090401,92,49.78,-74.85,26.6,8.05
502,San Juan,100,AR,1580090160,42,-31.54,-68.54,82.62,12.28
503,Charters Towers,100,AU,1580090402,83,-20.1,146.27,78.03,12.26
504,Charyshskoye,44,RU,1580090402,73,51.4,83.56,9.45,5.35
505,Finnsnes,100,NO,1580090403,76,69.23,17.98,21.99,27.51
506,Cheney,90,US,1580090403,93,47.49,-117.58,39.2,8.05
507,Brae,57,GB,1580090403,62,60.4,-1.35,41.0,12.75
508,Sulangan,0,PH,1580090403,82,11.14,123.72,80.76,9.17
509,Kilakarai,100,IN,1580090403,67,9.23,78.78,79.45,11.97
510,Bandarbeyla,26,SO,1580090035,76,9.49,50.81,78.93,26.44
511,College,100,US,1580090404,74,64.86,-147.8,-11.2,2.39
512,Alice Springs,3,AU,1580090274,11,-23.7,133.88,95.0,14.99
513,Yumen,88,CN,1580090404,46,40.28,97.2,23.02,11.18
514,Maceio,40,BR,1580090162,88,-9.67,-35.74,78.8,1.12
515,Sungaipenuh,100,ID,1580090405,75,-2.08,101.38,75.43,0.85
516,Jalingo,0,NG,1580089939,15,8.88,11.37,67.41,6.26
517,Espanola,1,US,1580090405,48,35.99,-106.08,41.0,3.36
518,Tocopilla,78,CL,1580089920,57,-22.09,-70.2,66.16,3.15
519,Arrondissement de Clermont,100,FR,1580090405,87,49.5,2.42,48.2,14.99
520,Shelburne,90,CA,1580090146,90,44.08,-80.2,34.0,8.05
521,Murakami,75,JP,1580090405,60,38.23,139.48,41.0,10.29
522,Edgewater,1,US,1580090402,62,28.99,-80.9,59.0,1.34
523,Kandi,0,BJ,1580090359,15,11.13,2.94,64.53,6.08
524,Bismarck,90,US,1580090406,100,46.81,-100.78,28.0,11.41
525,Verkhoyansk,0,RU,1580090406,82,67.54,133.38,-43.06,0.76
526,Plettenberg Bay,28,ZA,1580090406,79,-34.05,23.37,57.58,8.84
527,Siemiatycze,100,PL,1580090360,81,52.43,22.86,33.01,1.01
528,Srikakulam,0,IN,1580090406,56,18.3,83.9,74.07,4.81
529,Walvis Bay,91,,1580090041,82,-22.96,14.51,61.0,3.36
530,Chabahar,0,IR,1580090407,46,25.29,60.64,60.37,9.75
531,Lebanon,90,US,1580090380,87,36.21,-86.29,46.4,5.82
532,Kandrian,99,PG,1580090407,78,-6.22,149.55,84.6,3.74
533,Mitsamiouli,99,KM,1580090407,74,-11.38,43.28,81.66,3.51
534,Diffa,0,NE,1580090407,27,13.32,12.61,59.0,10.45
535,Veraval,0,IN,1580090407,58,20.9,70.37,65.19,7.07
536,Whithorn,75,JM,1580090408,65,18.26,-78.04,78.8,4.7
537,Jieshi,0,CN,1580090408,71,22.81,115.83,52.0,5.99
538,Marzuq,0,YE,1580090026,48,14.4,46.47,52.38,6.33
539,Springbok,0,ZA,1580090408,67,-29.66,17.89,48.94,11.43
540,Diu,0,IN,1580090408,52,20.71,70.98,72.54,8.93
541,Richards Bay,100,ZA,1580090067,75,-28.78,32.04,74.88,34.31
542,Omsukchan,100,RU,1580090409,100,62.53,155.8,-12.37,2.8
543,Comodoro Rivadavia,67,AR,1580090140,48,-45.87,-67.5,64.4,2.24
544,Kamaishi,75,JP,1580090409,55,39.27,141.88,33.8,4.7
545,Victor Harbor,44,AU,1580090409,55,-35.57,138.62,79.0,8.01
546,Takoradze,14,GH,1580090409,86,4.88,-1.76,74.28,1.7
547,Fayetteville,1,US,1580090137,80,35.05,-78.88,43.0,5.39
548,Maxixe,0,MZ,1580090410,81,-23.86,35.35,77.4,9.98
549,Praia,0,CV,1580090410,57,14.92,-23.51,75.2,18.34
550,Floresta,100,BR,1580090262,88,-8.6,-38.57,73.42,6.46
551,Zhanakorgan,100,KZ,1580090410,85,43.91,67.25,26.58,17.45
